[
  {
    "id": "sapporo-civic-plaza",
    "name": "札幌市民交流プラザ",
    "address": "札幌市中央区北1条西1丁目",
    "lat": 43.06323308344315,
    "lng": 141.35568408570364,
    "prefecture": "北海道"
  },
  {
    "id": "asahikawa-research-center",
    "name": "旭川リサーチセンター",
    "address": "北海道旭川市緑が丘東1条3丁目1-6",
    "lat": 43.724616257611984,
    "lng": 142.39388224260756,
    "prefecture": "北海道"
  },
  {
    "id": "asahikawa-city-daisetsu-crystal-hall",
    "name": "旭川市大雪クリスタルホール",
    "address": "北海道旭川市神楽３条７丁目１−４５",
    "lat": 43.7600754,
    "lng": 142.3509511,
    "prefecture": "北海道"
  },
  {
    "id": "deep-tech-core-sapporo",
    "name": "Deep Tech CORE SAPPORO",
    "address": "北海道札幌市中央区北５条西５丁目１",
    "lat": 43.06727041494782,
    "lng": 141.34758539720903,
    "prefecture": "北海道"
  },
  {
    "id": "air-water-forest",
    "name": "エア・ウォーターの森",
    "address": "北海道札幌市中央区北8条西13丁目28-21",
    "lat": 43.0685626,
    "lng": 141.3345065,
    "prefecture": "北海道"
  },
  {
    "id": "public-hakodate-future-university",
    "name": "公立はこだて未来大学",
    "address": "北海道函館市亀田中野町１１６−２",
    "lat": 41.8422511,
    "lng": 140.7669393,
    "prefecture": "北海道"
  },
  {
    "id": "sapporo-city-industrial-promotion-center",
    "name": "札幌市産業振興センター",
    "address": "札幌市白石区東札幌5条1丁目1－1",
    "lat": 43.0563589,
    "lng": 141.3852372,
    "prefecture": "北海道"
  },
  {
    "id": "sapporo-convention-center",
    "name": "札幌コンベンションセンター",
    "address": "北海道札幌市白石区東札幌６条１丁目１−１",
    "lat": 43.0570112,
    "lng": 141.3880396,
    "prefecture": "北海道"
  },
  {
    "id": "hakodate-arena",
    "name": "函館アリーナ",
    "address": "北海道函館市湯川町１丁目３２−２",
    "lat": 41.7820981,
    "lng": 140.7832338,
    "prefecture": "北海道"
  },
  {
    "id": "sapporo-prince-hotel",
    "name": "札幌プリンスホテル",
    "address": "北海道札幌市中央区南２条西１１丁目",
    "lat": 43.055978094929785,
    "lng": 141.34082746495577,
    "prefecture": "北海道"
  },
  {
    "id": "hokkaido-university-clark-memorial-student-center",
    "name": "北海道大学 クラーク会館",
    "address": "北海道札幌市北区北８条西７丁目",
    "lat": 43.06976167938971,
    "lng": 141.34339481581364,
    "prefecture": "北海道"
  },
  {
    "id": "hokkaido-university-information-science-technology",
    "name": "北海道大学 情報科学研究院棟",
    "address": "北海道札幌市北区北１４条西９丁目",
    "lat": 43.07633566625382,
    "lng": 141.33896773754526,
    "prefecture": "北海道"
  },
  {
    "id": "hokkaido-university-conference-hall",
    "name": "北海道大学 学術交流会館",
    "address": "北海道札幌市北区北８条西５丁目８−１",
    "lat": 43.07081587136116,
    "lng": 141.3475373517194,
    "prefecture": "北海道"
  },
  {
    "id": "hokkaido-information-uiversity-sapporo-satellite",
    "name": "北海道情報大学札幌サテライト",
    "address": "北海道札幌市中央区北３条西７丁目 ４階 1-1",
    "lat": 43.064153438858206,
    "lng": 141.34603980329373,
    "prefecture": "北海道"
  },
  {
    "id": "media-mix-hall",
    "name": "メディアMIXホール",
    "address": "北海道札幌市白石区菊水１条３丁目１−５",
    "lat": 43.054773023249666,
    "lng": 141.37185391178872,
    "prefecture": "北海道"
  },
  {
    "id": "hokkaido-citizens-activities-center-kaderu-2-7",
    "name": "北海道立道民活動センター かでる2・7",
    "address": "北海道札幌市中央区北２条西７丁目 道民活動センタービル",
    "lat": 43.063478304375096,
    "lng": 141.34631613562013,
    "prefecture": "北海道"
  }
]
