[
  {
    "id": "ota-pio",
    "name": "大田区産業プラザPiO",
    "address": "東京都大田区南蒲田1丁目20−20",
    "lat": 35.558877,
    "lng": 139.724089,
    "prefecture": "東京都"
  },
  {
    "id": "pixiv",
    "name": "ピクシブ株式会社",
    "address": "東京都渋谷区千駄ケ谷4丁目23−5",
    "lat": 35.680991788113076,
    "lng": 139.70654830944574,
    "prefecture": "東京都"
  },
  {
    "id": "nakano-central-park",
    "name": "中野セントラルパークカンファレンス",
    "address": "東京都中野区中野4丁目10−2",
    "lat": 35.70703193411808,
    "lng": 139.6616866530886,
    "prefecture": "東京都"
  },
  {
    "id": "bersal-kanda",
    "name": "ベルサール神田",
    "address": "東京都千代田区神田美土代町7",
    "lat": 35.693220469554575,
    "lng": 139.76550438544646,
    "prefecture": "東京都"
  },
  {
    "id": "ariake-central-tower",
    "name": "有明セントラルタワー ホール&カンファレンス",
    "address": "東京都江東区有明３丁目７−１８",
    "lat": 35.63212578710421,
    "lng": 139.7936452281496,
    "prefecture": "東京都"
  },
  {
    "id": "ocha-no-mizu-joshi-daigaku",
    "name": "お茶の水女子大学",
    "address": "東京都文京区大塚2丁目1−1",
    "lat": 35.71868105314968,
    "lng": 139.7310516444195,
    "prefecture": "東京都"
  },
  {
    "id": "ikebukuro-sunshine-city",
    "name": "池袋サンシャインシティ",
    "address": "東京都豊島区東池袋3-1",
    "lat": 35.728185,
    "lng": 139.7202761,
    "prefecture": "東京都"
  },
  {
    "id": "hilton-tokyo-odaiba",
    "name": "ヒルトン東京お台場",
    "address": "東京都港区台場１丁目９−１",
    "lat": 35.6262864,
    "lng": 139.7707796,
    "prefecture": "東京都"
  },
  {
    "id": "toc-ariake-convention-hall",
    "name": "TOC有明コンベンションホール",
    "address": "東京都江東区有明３丁目５−７",
    "lat": 35.63230616964451,
    "lng": 139.78839987626475,
    "prefecture": "東京都"
  },
  {
    "id": "musashino-place",
    "name": "武蔵野プレイス",
    "address": "東京都武蔵野市境南町２丁目３−１８",
    "lat": 35.7010861,
    "lng": 139.5437217,
    "prefecture": "東京都"
  },
  {
    "id": "musashino-public-hall",
    "name": "武蔵野公会堂",
    "address": "東京都武蔵野市吉祥寺南町１丁目６−２２",
    "lat": 35.6969614,
    "lng": 139.5763128,
    "prefecture": "東京都"
  },
  {
    "id": "docomo-rd-openlab-odaiba",
    "name": "docomo R&D OPENLAB ODAIBA",
    "address": "東京都港区台場２丁目３−２",
    "lat": 35.62865916531257,
    "lng": 139.77779057813072,
    "prefecture": "東京都"
  },
  {
    "id": "abema-towers",
    "name": "Abema Towers",
    "address": "東京都渋谷区宇田川町40-1",
    "lat": 35.6624319,
    "lng": 139.6960429,
    "prefecture": "東京都"
  },
  {
    "id": "jp-tower-hall-conference",
    "name": "JPタワー ホール＆カンファレンス",
    "address": "東京都千代田区丸の内２丁目７−２",
    "lat": 35.67990791289149,
    "lng": 139.7646534549541,
    "prefecture": "東京都"
  },
  {
    "id": "asakusabashi-hulic-hall-conference",
    "name": "浅草橋ヒューリックホール&カンファレンス",
    "address": "東京都台東区浅草橋１丁目２２−１６",
    "lat": 35.69794588574528,
    "lng": 139.78433704205858,
    "prefecture": "東京都"
  },
  {
    "id": "waseda-university-nishi-waseda-campus",
    "name": "早稲田大学西早稲田キャンパス",
    "address": "東京都新宿区大久保３丁目４−１",
    "lat": 35.7060685,
    "lng": 139.7067865,
    "prefecture": "東京都"
  },
  {
    "id": "tokyo-international-exchange-center",
    "name": "東京国際交流館",
    "address": "東京都江東区青海２丁目２−１",
    "lat": 35.621845,
    "lng": 139.776833,
    "prefecture": "東京都"
  },
  {
    "id": "otemachi-place-hall-conference",
    "name": "大手町プレイス ホール＆カンファレンス",
    "address": "東京都千代田区大手町２丁目３−２ ",
    "lat": 35.687187407175415,
    "lng": 139.76811417975753,
    "prefecture": "東京都"
  },
  {
    "id": "akihabara-udx",
    "name": "秋葉原UDX",
    "address": "東京都千代田区外神田４丁目１４−１",
    "lat": 35.7003697,
    "lng": 139.7726097,
    "prefecture": "東京都"
  },
  {
    "id": "ap-nihonbashi",
    "name": "AP日本橋",
    "address": "東京都中央区日本橋３丁目６−２",
    "lat": 35.6798452912011,
    "lng": 139.7722185928473,
    "prefecture": "東京都"
  },
  {
    "id": "ap-shinagawa",
    "name": "AP品川",
    "address": "東京都港区港南１丁目６−３１",
    "lat": 35.6092008,
    "lng": 139.7301982,
    "prefecture": "東京都"
  },
  {
    "id": "ap-tokyo-yaesu",
    "name": "AP東京八重洲",
    "address": "東京都中央区京橋１丁目１０−７",
    "lat": 35.6786562888351,
    "lng": 139.77263397751793,
    "prefecture": "東京都"
  },
  {
    "id": "nerima-city-citizens-and-industry-plaza-coconeri-hall",
    "name": "練馬区立区民・産業プラザ Coconeriホール",
    "address": "東京都練馬区練馬１丁目１７−１",
    "lat": 35.7381337,
    "lng": 139.6536513,
    "prefecture": "東京都"
  },
  {
    "id": "kudan-kaikan-terrace",
    "name": "九段会館テラス",
    "address": "東京都千代田区九段南１丁目６−５",
    "lat": 35.6942249,
    "lng": 139.7513857,
    "prefecture": "東京都"
  },
  {
    "id": "toyosu-front",
    "name": "豊洲フロント",
    "address": "東京都江東区豊洲３丁目２−２０",
    "lat": 35.6568986,
    "lng": 139.7956414,
    "prefecture": "東京都"
  },
  {
    "id": "hibiya-kokusai-building-conference-square",
    "name": "日比谷国際ビル コンファレンススクエア",
    "address": "東京都千代田区内幸町２丁目２−３",
    "lat": 35.67042142307632,
    "lng": 139.75429205296152,
    "prefecture": "東京都"
  },
  {
    "id": "toranomon-hills-forum",
    "name": "虎ノ門ヒルズフォーラム",
    "address": "東京都港区虎ノ門１丁目２３−３",
    "lat": 35.666878409960134,
    "lng": 139.7494388262539,
    "prefecture": "東京都"
  },
  {
    "id": "gmo-yoursfukuras",
    "name": "GMO Yours・フクラス",
    "address": "東京都渋谷区道玄坂1丁目2番3号",
    "lat": 35.65762464851323,
    "lng": 139.70009763319135,
    "prefecture": "東京都"
  },
  {
    "id": "roppongi-hills-mori-tower-mercari",
    "name": "六本木ヒルズ森タワー メルカリ",
    "address": "東京都港区六本木６丁目１０−１",
    "lat": 35.66068383650611,
    "lng": 139.72927627622354,
    "prefecture": "東京都"
  },
  {
    "id": "gran-tokyo-south-tower",
    "name": "グラントウキョウ サウスタワー",
    "address": "東京都千代田区丸の内１丁目９−２",
    "lat": 35.67882179987549,
    "lng": 139.7675000835613,
    "prefecture": "東京都"
  },
  {
    "id": "kudansakagami-ks-building",
    "name": "九段坂上KSビル",
    "address": "東京都千代田区九段北1-14-6",
    "lat": 35.6957429,
    "lng": 139.7491841,
    "prefecture": "東京都"
  },
  {
    "id": "arts-chiyoda-3331",
    "name": "アーツ千代田 3331",
    "address": "東京都千代田区外神田6丁目11-14",
    "lat": 35.70428716699617,
    "lng": 139.7706963050485,
    "prefecture": "東京都"
  },
  {
    "id": "yahoo-corporation",
    "name": "ヤフー株式会社",
    "address": "東京都千代田区紀尾井町1-3",
    "lat": 35.6795452,
    "lng": 139.736962,
    "prefecture": "東京都"
  },
  {
    "id": "hosei-university-fujimi-gate",
    "name": "法政大学 市ケ谷キャンパス",
    "address": "東京都千代田区富士見2-17-1",
    "lat": 35.69597690157406,
    "lng": 139.7411994580286,
    "prefecture": "東京都"
  },
  {
    "id": "dots",
    "name": "dots.",
    "address": "東京都渋谷区宇田川町20-17",
    "lat": 35.66110213483308,
    "lng": 139.7004174608877,
    "prefecture": "東京都"
  },
  {
    "id": "cyberagent-mark-city-co-ltd",
    "name": "株式会社サイバーエージェント セミナールーム",
    "address": "渋谷区道玄坂1丁目12番1号",
    "lat": 35.6581058564742,
    "lng": 139.69858643045342,
    "prefecture": "東京都"
  },
  {
    "id": "nifty-co-ltd-seminar-room",
    "name": "ニフティ株式会社 セミナールーム",
    "address": "東京都新宿区北新宿2-21-1",
    "lat": 35.6960397,
    "lng": 139.6893766,
    "prefecture": "東京都"
  },
  {
    "id": "yahoo-japan-midtown-tower",
    "name": "Yahoo! JAPAN(ミッドタウン・タワー)",
    "address": "東京都港区赤坂9-7-1 ",
    "lat": 35.66627138583531,
    "lng": 139.73122035588378,
    "prefecture": "東京都"
  },
  {
    "id": "bellesalle-shiodome",
    "name": "ベルサール汐留",
    "address": "東京都中央区銀座８丁目２１−１",
    "lat": 35.66426945958543,
    "lng": 139.76404591084437,
    "prefecture": "東京都"
  },
  {
    "id": "tower-hall-funabori",
    "name": "タワーホール船堀",
    "address": "東京都江戸川区船堀４丁目１−１",
    "lat": 35.684403,
    "lng": 139.8647807,
    "prefecture": "東京都"
  },
  {
    "id": "nerima-cultural-center",
    "name": "練馬文化センター",
    "address": "東京都練馬区練馬１丁目１７−３７",
    "lat": 35.7394074,
    "lng": 139.6537515,
    "prefecture": "東京都"
  },
  {
    "id": "hitotsubashi-university-chiyoda-campus",
    "name": "一橋大学 千代田キャンパス",
    "address": "東京都千代田区一ツ橋２丁目１−２",
    "lat": 35.6926247,
    "lng": 139.7580149,
    "prefecture": "東京都"
  },
  {
    "id": "zendentsu-labor-hall",
    "name": "全電通労働会館",
    "address": "東京都千代田区神田駿河台３丁目６",
    "lat": 35.6968268,
    "lng": 139.7658361,
    "prefecture": "東京都"
  },
  {
    "id": "national-institute-of-advanced-industrial-science-and-technology-waterfront-city-center",
    "name": "産業技術総合研究所臨海副都心センター",
    "address": "東京都江東区青海２丁目３−２６",
    "lat": 35.61862611600008,
    "lng": 139.77734351576174,
    "prefecture": "東京都"
  },
  {
    "id": "smart-news-co-ltd",
    "name": "スマートニュース株式会社",
    "address": "東京都渋谷区神宮前６丁目２５−１６",
    "lat": 35.665418035515216,
    "lng": 139.70277909955678,
    "prefecture": "東京都"
  }
]
