[
  {
    "id": "ota-pio",
    "name": "大田区産業プラザPiO",
    "address": "東京都大田区南蒲田1丁目20−20",
    "lat": 35.558877,
    "lng": 139.724089,
    "prefecture": "東京都"
  },
  {
    "id": "pixiv",
    "name": "ピクシブ株式会社",
    "address": "東京都渋谷区千駄ケ谷4丁目23−5",
    "lat": 35.680991788113076,
    "lng": 139.70654830944574,
    "prefecture": "東京都"
  },
  {
    "id": "nakano-central-park",
    "name": "中野セントラルパークカンファレンス",
    "address": "東京都中野区中野4丁目10−2",
    "lat": 35.70703193411808,
    "lng": 139.6616866530886,
    "prefecture": "東京都"
  },
  {
    "id": "bersal-kanda",
    "name": "ベルサール神田",
    "address": "東京都千代田区神田美土代町7",
    "lat": 35.693220469554575, 
    "lng": 139.76550438544646,
    "prefecture": "東京都"
  },
  {
    "id": "ariake-central-tower",
    "name": "有明セントラルタワー ホール&カンファレンス",
    "address": "東京都江東区有明３丁目７−１８",
    "lat": 35.63212578710421, 
    "lng": 139.7936452281496,
    "prefecture": "東京都"
  },
  {
    "id": "ocha-no-mizu-joshi-daigaku",
    "name": "お茶の水女子大学",
    "address": "東京都文京区大塚2丁目1−1",
    "lat": 35.71868105314968, 
    "lng": 139.7310516444195,
    "prefecture": "東京都"
  }
]