[
  {
    "id": "ota-pio",
    "name": "大田区産業プラザPiO",
    "address": "東京都大田区南蒲田1丁目20−20",
    "lat": 35.558877,
    "lng": 139.724089,
    "prefecture": "東京都"
  },
  {
    "id": "pixiv",
    "name": "ピクシブ株式会社",
    "address": "東京都渋谷区千駄ケ谷4丁目23−5",
    "lat": 35.680991788113076,
    "lng": 139.70654830944574,
    "prefecture": "東京都"
  },
  {
    "id": "nakano-central-park",
    "name": "中野セントラルパークカンファレンス",
    "address": "東京都中野区中野4丁目10−2",
    "lat": 35.70703193411808,
    "lng": 139.6616866530886,
    "prefecture": "東京都"
  },
  {
    "id": "bersal-kanda",
    "name": "ベルサール神田",
    "address": "東京都千代田区神田美土代町7",
    "lat": 35.693220469554575,
    "lng": 139.76550438544646,
    "prefecture": "東京都"
  },
  {
    "id": "ariake-central-tower",
    "name": "有明セントラルタワー ホール&カンファレンス",
    "address": "東京都江東区有明３丁目７−１８",
    "lat": 35.63212578710421,
    "lng": 139.7936452281496,
    "prefecture": "東京都"
  },
  {
    "id": "ocha-no-mizu-joshi-daigaku",
    "name": "お茶の水女子大学",
    "address": "東京都文京区大塚2丁目1−1",
    "lat": 35.71868105314968,
    "lng": 139.7310516444195,
    "prefecture": "東京都"
  },
  {
    "id": "ikebukuro-sunshine-city",
    "name": " 池袋サンシャインシティ",
    "address": "東京都豊島区東池袋3-1",
    "lat": 35.728185,
    "lng": 139.7202761,
    "prefecture": "東京都"
  },
  {
    "id": "hilton-tokyo-odaiba",
    "name": "ヒルトン東京お台場",
    "address": "東京都港区台場１丁目９−１",
    "lat": 35.6262864,
    "lng": 139.7707796,
    "prefecture": "東京都"
  },
  {
    "id": "toc-ariake-convention-hall",
    "name": "TOC有明コンベンションホール",
    "address": "東京都江東区有明３丁目５−７",
    "lat": 35.63230616964451,
    "lng": 139.78839987626475,
    "prefecture": "東京都"
  },
  {
    "id": "musashino-place",
    "name": "武蔵野プレイス",
    "address": "東京都武蔵野市境南町２丁目３−１８",
    "lat": 35.7010861,
    "lng": 139.5437217,
    "prefecture": "東京都"
  },
  {
    "id": "musashino-public-hall",
    "name": "武蔵野公会堂",
    "address": "東京都武蔵野市吉祥寺南町１丁目６−２２",
    "lat": 35.6969614,
    "lng": 139.5763128,
    "prefecture": "東京都"
  },
  {
    "id": "docomo-rd-openlab-odaiba",
    "name": "docomo R&D OPENLAB ODAIBA",
    "address": "東京都港区台場２丁目３−２",
    "lat": 35.62865916531257,
    "lng": 139.77779057813072,
    "prefecture": "東京都"
  },
  {
    "id": "abema-towers",
    "name": "Abema Towers",
    "address": "東京都渋谷区宇田川町40-1",
    "lat": 35.6624319,
    "lng": 139.6960429,
    "prefecture": "東京都"
  },
  {
    "id": "jp-tower-hall-conference",
    "name": "JPタワー ホール＆カンファレンス",
    "address": "東京都千代田区丸の内２丁目７−２",
    "lat": 35.67990791289149,
    "lng": 139.7646534549541,
    "prefecture": "東京都"
  }
]
