[
  {
    "id": "ffb-hall",
    "name": "FFBホール",
    "address": "福岡県福岡市博多区博多駅前2丁目10−19",
    "lat": 33.5921875,
    "lng": 130.4149999,
    "prefecture": "福岡県"
  },
  {
    "id": "fukuoka-institute-of-technology",
    "name": "福岡工業大学",
    "address": "福岡県福岡市東区和白東３丁目３０−１",
    "lat": 33.6963746,
    "lng": 130.4406732,
    "prefecture": "福岡県"
  },
  {
    "id": "acros-fukuoka",
    "name": "アクロス福岡",
    "address": "福岡県福岡市中央区天神１丁目１−１",
    "lat": 33.5914878,
    "lng": 130.402445,
    "prefecture": "福岡県"
  },
  {
    "id": "fukuoka-international-conference-center",
    "name": "福岡国際会議場",
    "address": "福岡県福岡市博多区石城町２−１",
    "lat": 33.6043194,
    "lng": 130.4035441,
    "prefecture": "福岡県"
  },
  {
    "id": "hakata-international-exhibition-center",
    "name": "博多国際展示場",
    "address": "福岡県福岡市博多区東光２丁目２２−１５",
    "lat": 33.59603173591288,
    "lng": 130.42876184171223,
    "prefecture": "福岡県"
  }
]
